Object ID,Name,Longitude,Latitude,Distance (Parsecs),absolute magnitude
0,Merak,11.030555,56.38222,26,0.27
1,Dubhe,11.0619444,61.75111,42.2,-1.31
2,Phecda,11.8969444,53.6947222,27.4,0.21
3,Megrez,12.2569444,57.0325,24.9,1.32
4,Alioth,12.9002777,55.9597222,27.6,-0.45
5,Mizar,13.3986111,54.9252777,25,0.23
6,Alkaid,13.792222,49.3130555,34.5,-0.83
